<?xml version="1.0" encoding="utf-8"?>
<ArrayOfVolunteer>
  <Volunteer>
    <ID>943816217</ID>
    <fullName>Ruth Cohen</fullName>
    <phone>050-1234567</phone>
    <email>ruth@example.com</email>
    <password>P@ssw0rd</password>
    <isActive>true</isActive>
    <role>Volunteer</role>
    <distance>Aerial</distance>
    <address>King George St 20, Jerusalem, Israel</address>
    <longitude>35.2193</longitude>
    <latitude>31.7784</latitude>
    <maxDistance>83</maxDistance>
  </Volunteer>
  <Volunteer>
    <ID>715098538</ID>
    <fullName>Yossi Levy</fullName>
    <phone>052-9876543</phone>
    <email>yossi@example.com</email>
    <password>A1b2C3</password>
    <isActive>true</isActive>
    <role>Volunteer</role>
    <distance>Aerial</distance>
    <address>Jaffa St 45, Jerusalem, Israel</address>
    <longitude>35.2137</longitude>
    <latitude>31.7834</latitude>
    <maxDistance>44</maxDistance>
  </Volunteer>
  <Volunteer>
    <ID>995410257</ID>
    <fullName>Oren Alon</fullName>
    <phone>053-4567890</phone>
    <email>oren@example.com</email>
    <password>Hello5</password>
    <isActive>true</isActive>
    <role>Volunteer</role>
    <distance>Aerial</distance>
    <address>Agripas St 10, Jerusalem, Israel</address>
    <longitude>35.2129</longitude>
    <latitude>31.7801</latitude>
    <maxDistance>92</maxDistance>
  </Volunteer>
  <Volunteer>
    <ID>740702725</ID>
    <fullName>Meirav Israeli</fullName>
    <phone>054-1237894</phone>
    <email>meirav@example.com</email>
    <password>Pa55word</password>
    <isActive>true</isActive>
    <role>Volunteer</role>
    <distance>Aerial</distance>
    <address>HaPalmach St 25, Jerusalem, Israel</address>
    <longitude>35.2065</longitude>
    <latitude>31.7642</latitude>
    <maxDistance>95</maxDistance>
  </Volunteer>
  <Volunteer>
    <ID>877911748</ID>
    <fullName>Dan Mizrahi</fullName>
    <phone>055-6789123</phone>
    <email>dan@example.com</email>
    <password>C0ding</password>
    <isActive>true</isActive>
    <role>Volunteer</role>
    <distance>Aerial</distance>
    <address>Emek Refaim St 43, Jerusalem, Israel</address>
    <longitude>35.2117</longitude>
    <latitude>31.7655</latitude>
    <maxDistance>35</maxDistance>
  </Volunteer>
  <Volunteer>
    <ID>882032031</ID>
    <fullName>Ayelet Israeli</fullName>
    <phone>050-3456789</phone>
    <email>ayelet@example.com</email>
    <password>1234Aq</password>
    <isActive>true</isActive>
    <role>Volunteer</role>
    <distance>Aerial</distance>
    <address>Hapisga St 18, Jerusalem, Israel</address>
    <longitude>35.212416</longitude>
    <latitude>31.751709</latitude>
    <maxDistance>74</maxDistance>
  </Volunteer>
  <Volunteer>
    <ID>907468693</ID>
    <fullName>Dana Cohen</fullName>
    <phone>052-2345678</phone>
    <email>dana@example.com</email>
    <password>Secur3</password>
    <isActive>true</isActive>
    <role>Volunteer</role>
    <distance>Aerial</distance>
    <address>Hillel St 7, Jerusalem, Israel</address>
    <longitude>35.2142</longitude>
    <latitude>31.7809</latitude>
    <maxDistance>26</maxDistance>
  </Volunteer>
  <Volunteer>
    <ID>977167002</ID>
    <fullName>Noam Brenner</fullName>
    <phone>053-9876543</phone>
    <email>noam@example.com</email>
    <password>Qw3rty</password>
    <isActive>true</isActive>
    <role>Volunteer</role>
    <distance>Aerial</distance>
    <address>Derech Hebron 105, Jerusalem, Israel</address>
    <longitude>35.2156</longitude>
    <latitude>31.7515</latitude>
    <maxDistance>70</maxDistance>
  </Volunteer>
  <Volunteer>
    <ID>863169479</ID>
    <fullName>Ofer Mizrahi</fullName>
    <phone>054-5678912</phone>
    <email>ofer@example.com</email>
    <password>L0gin9</password>
    <isActive>true</isActive>
    <role>Volunteer</role>
    <distance>Aerial</distance>
    <address>Bezalel St 12, Jerusalem, Israel</address>
    <longitude>35.215</longitude>
    <latitude>31.7812</latitude>
    <maxDistance>29</maxDistance>
  </Volunteer>
  <Volunteer>
    <ID>709967027</ID>
    <fullName>Ron Halevi</fullName>
    <phone>055-1234569</phone>
    <email>ron@example.com</email>
    <password>T3stMe</password>
    <isActive>true</isActive>
    <role>Volunteer</role>
    <distance>Aerial</distance>
    <address>HaNeviim St 29, Jerusalem, Israel</address>
    <longitude>35.2175</longitude>
    <latitude>31.7837</latitude>
    <maxDistance>18</maxDistance>
  </Volunteer>
  <Volunteer>
    <ID>946862810</ID>
    <fullName>Liron Abutbul</fullName>
    <phone>050-4561237</phone>
    <email>liron@example.com</email>
    <password>Adm1n!</password>
    <isActive>true</isActive>
    <role>Volunteer</role>
    <distance>Aerial</distance>
    <address>Shivtei Israel St 15, Jerusalem, Israel</address>
    <longitude>35.2214</longitude>
    <latitude>31.7849</latitude>
    <maxDistance>55</maxDistance>
  </Volunteer>
  <Volunteer>
    <ID>791564975</ID>
    <fullName>Omer Katz</fullName>
    <phone>052-7893451</phone>
    <email>omer@example.com</email>
    <password>C#1234</password>
    <isActive>true</isActive>
    <role>Volunteer</role>
    <distance>Aerial</distance>
    <address>Azza St 50, Jerusalem, Israel</address>
    <longitude>35.2123</longitude>
    <latitude>31.7698</latitude>
    <maxDistance>11</maxDistance>
  </Volunteer>
  <Volunteer>
    <ID>726453074</ID>
    <fullName>Ronit Goldman</fullName>
    <phone>053-3214567</phone>
    <email>ronit@example.com</email>
    <password>P4ssMe</password>
    <isActive>true</isActive>
    <role>Volunteer</role>
    <distance>Aerial</distance>
    <address>Yitzhak Kariv St 4, Jerusalem, Israel</address>
    <longitude>35.2241</longitude>
    <latitude>31.7714</latitude>
    <maxDistance>74</maxDistance>
  </Volunteer>
  <Volunteer>
    <ID>947413613</ID>
    <fullName>Ilan Shemesh</fullName>
    <phone>054-7896543</phone>
    <email>ilan@example.com</email>
    <password>C0ffee</password>
    <isActive>true</isActive>
    <role>Volunteer</role>
    <distance>Aerial</distance>
    <address>Prophets St 23, Jerusalem, Israel</address>
    <longitude>35.2191</longitude>
    <latitude>31.7815</latitude>
    <maxDistance>50</maxDistance>
  </Volunteer>
  <Volunteer>
    <ID>887359493</ID>
    <fullName>Galit Cohen</fullName>
    <phone>055-6547891</phone>
    <email>galit@example.com</email>
    <password>Choco7</password>
    <isActive>true</isActive>
    <role>Volunteer</role>
    <distance>Aerial</distance>
    <address>Ben Yehuda St 1, Jerusalem, Israel</address>
    <longitude>35.2203</longitude>
    <latitude>31.7822</latitude>
    <maxDistance>38</maxDistance>
  </Volunteer>
  <Volunteer>
    <ID>375938504</ID>
    <fullName>Admin Man</fullName>
    <phone>050-1111111</phone>
    <email>admin@example.com</email>
    <password>A1234</password>
    <isActive>true</isActive>
    <role>Boss</role>
    <distance>Aerial</distance>
    <address>HaPega Street 16, Jerusalem, Israel</address>
    <longitude>35.217018</longitude>
    <latitude>31.771959</latitude>
  </Volunteer>
  <Volunteer>
    <ID>326301454</ID>
    <fullName>sara</fullName>
    <phone>0549149987</phone>
    <email>nkfv@gamil.com</email>
    <password>12346Gs</password>
    <isActive>true</isActive>
    <role>Boss</role>
    <distance>Aerial</distance>
    <address>HaRav Kook St 8, Jerusalem, Israel</address>
    <longitude>35.2203032</longitude>
    <latitude>31.7831088</latitude>
    <maxDistance>3</maxDistance>
  </Volunteer>
</ArrayOfVolunteer>