<?xml version="1.0" encoding="utf-8"?>
<ArrayOfVolunteer>
  <Volunteer>
    <ID>207488065</ID>
    <fullName>Ruth Cohen</fullName>
    <phone>0501234567</phone>
    <email>ruth@example.com</email>
    <password>SCvvz3ug</password>
    <isActive>true</isActive>
    <role>Volunteer</role>
    <distance>Aerial</distance>
    <address>King George St 20, Jerusalem, Israel</address>
    <longitude>35.2193</longitude>
    <latitude>31.7784</latitude>
    <maxDistance>44</maxDistance>
  </Volunteer>
  <Volunteer>
    <ID>207669508</ID>
    <fullName>Yossi Levy</fullName>
    <phone>0529876543</phone>
    <email>yossi@example.com</email>
    <password>D4e5F6</password>
    <isActive>true</isActive>
    <role>Volunteer</role>
    <distance>Aerial</distance>
    <address>bit hadfus 7  ,Jerusalem, Israel</address>
    <longitude>35.189689</longitude>
    <latitude>31.78542</latitude>
    <maxDistance>43</maxDistance>
  </Volunteer>
  <Volunteer>
    <ID>207733817</ID>
    <fullName>Oren Alon</fullName>
    <phone>0534567890</phone>
    <email>oren@example.com</email>
    <password>Khoor8</password>
    <isActive>true</isActive>
    <role>Volunteer</role>
    <distance>Aerial</distance>
    <address>Agripas St 10, Jerusalem, Israel</address>
    <longitude>35.2129</longitude>
    <latitude>31.7801</latitude>
    <maxDistance>80</maxDistance>
  </Volunteer>
  <Volunteer>
    <ID>207862384</ID>
    <fullName>Meirav Israeli</fullName>
    <phone>0541237894</phone>
    <email>meirav@example.com</email>
    <password>Sd88zrug</password>
    <isActive>true</isActive>
    <role>Volunteer</role>
    <distance>Aerial</distance>
    <address>Hapalmach St 25, Jerusalem, Israel</address>
    <longitude>35.2065</longitude>
    <latitude>31.7642</latitude>
    <maxDistance>98</maxDistance>
  </Volunteer>
  <Volunteer>
    <ID>207926692</ID>
    <fullName>Dan Mizrahi</fullName>
    <phone>0556789123</phone>
    <email>dan@example.com</email>
    <password>F3glqj</password>
    <isActive>true</isActive>
    <role>Volunteer</role>
    <distance>Aerial</distance>
    <address>Emek Refaim St 43, Jerusalem, Israel</address>
    <longitude>35.2117</longitude>
    <latitude>31.7655</latitude>
    <maxDistance>7</maxDistance>
  </Volunteer>
  <Volunteer>
    <ID>208317958</ID>
    <fullName>Ayelet Israeli</fullName>
    <phone>0503456789</phone>
    <email>ayelet@example.com</email>
    <password>4567Dt</password>
    <isActive>true</isActive>
    <role>Volunteer</role>
    <distance>Aerial</distance>
    <address>Hapisga St 18, Jerusalem, Israel</address>
    <longitude>35.212416</longitude>
    <latitude>31.751709</latitude>
    <maxDistance>87</maxDistance>
  </Volunteer>
  <Volunteer>
    <ID>208448738</ID>
    <fullName>Dana Cohen</fullName>
    <phone>0522345678</phone>
    <email>dana@example.com</email>
    <password>Vhfxu6</password>
    <isActive>true</isActive>
    <role>Volunteer</role>
    <distance>Aerial</distance>
    <address>Hillel St 7, Jerusalem, Israel</address>
    <longitude>35.2142</longitude>
    <latitude>31.7809</latitude>
    <maxDistance>74</maxDistance>
  </Volunteer>
  <Volunteer>
    <ID>208731323</ID>
    <fullName>Noam Brenner</fullName>
    <phone>0539876543</phone>
    <email>noam@example.com</email>
    <password>Tz6uw|</password>
    <isActive>true</isActive>
    <role>Volunteer</role>
    <distance>Aerial</distance>
    <address>Derech Hebron 105, Jerusalem, Israel</address>
    <longitude>35.2156</longitude>
    <latitude>31.7515</latitude>
    <maxDistance>68</maxDistance>
  </Volunteer>
  <Volunteer>
    <ID>208749978</ID>
    <fullName>Ofer Mizrahi</fullName>
    <phone>0545678912</phone>
    <email>ofer@example.com</email>
    <password>O3jlq&lt;</password>
    <isActive>true</isActive>
    <role>Volunteer</role>
    <distance>Aerial</distance>
    <address>Bezalel St 12, Jerusalem, Israel</address>
    <longitude>35.215</longitude>
    <latitude>31.7812</latitude>
    <maxDistance>99</maxDistance>
  </Volunteer>
  <Volunteer>
    <ID>209184217</ID>
    <fullName>Ron Halevi</fullName>
    <phone>0551234569</phone>
    <email>ron@example.com</email>
    <password>W6vwPh</password>
    <isActive>true</isActive>
    <role>Volunteer</role>
    <distance>Aerial</distance>
    <address>HaNeviim St 29, Jerusalem, Israel</address>
    <longitude>35.2175</longitude>
    <latitude>31.7837</latitude>
    <maxDistance>97</maxDistance>
  </Volunteer>
  <Volunteer>
    <ID>209307123</ID>
    <fullName>Liron Abutbul</fullName>
    <phone>0504561237</phone>
    <email>liron@example.com</email>
    <password>Dgp4q$</password>
    <isActive>true</isActive>
    <role>Volunteer</role>
    <distance>Aerial</distance>
    <address>Shivtei Israel St 15, Jerusalem, Israel</address>
    <longitude>35.2214</longitude>
    <latitude>31.7849</latitude>
    <maxDistance>45</maxDistance>
  </Volunteer>
  <Volunteer>
    <ID>209314277</ID>
    <fullName>Omer Katz</fullName>
    <phone>0527893451</phone>
    <email>omer@example.com</email>
    <password>F&amp;4567</password>
    <isActive>true</isActive>
    <role>Volunteer</role>
    <distance>Aerial</distance>
    <address>Azza St 50, Jerusalem, Israel</address>
    <longitude>35.2123</longitude>
    <latitude>31.7698</latitude>
    <maxDistance>84</maxDistance>
  </Volunteer>
  <Volunteer>
    <ID>209567445</ID>
    <fullName>Ronit Goldman</fullName>
    <phone>0533214567</phone>
    <email>ronit@example.com</email>
    <password>S7vvPh</password>
    <isActive>true</isActive>
    <role>Volunteer</role>
    <distance>Aerial</distance>
    <address>Kriyat Hayuvel St 5, Jerusalem, Israel</address>
    <longitude>35.18130622417343</longitude>
    <latitude>31.770868836791788</latitude>
    <maxDistance>64</maxDistance>
  </Volunteer>
  <Volunteer>
    <ID>209567890</ID>
    <fullName>Ilan Shemesh</fullName>
    <phone>0547896543</phone>
    <email>ilan@example.com</email>
    <password>F3iihh</password>
    <isActive>true</isActive>
    <role>Volunteer</role>
    <distance>Aerial</distance>
    <address>Prophets St 23, Jerusalem, Israel</address>
    <longitude>35.2191</longitude>
    <latitude>31.7815</latitude>
    <maxDistance>36</maxDistance>
  </Volunteer>
  <Volunteer>
    <ID>209606318</ID>
    <fullName>Galit Cohen</fullName>
    <phone>0556547891</phone>
    <email>galit@example.com</email>
    <password>Fkrfr:</password>
    <isActive>true</isActive>
    <role>Volunteer</role>
    <distance>Aerial</distance>
    <address>Ben Yehuda St 1, Jerusalem, Israel</address>
    <longitude>35.2203</longitude>
    <latitude>31.7822</latitude>
    <maxDistance>58</maxDistance>
  </Volunteer>
  <Volunteer>
    <ID>326209566</ID>
    <fullName>Malka Haupt</fullName>
    <phone>0501111111</phone>
    <email>admin@example.com</email>
    <password>D4567</password>
    <isActive>true</isActive>
    <role>Boss</role>
    <distance>Aerial</distance>
    <address>Harounoff  street 2, Jerusalem, Israel</address>
    <longitude>35.218994</longitude>
    <latitude>31.796294</latitude>
  </Volunteer>
  <Volunteer>
    <ID>214425027</ID>
    <fullName>Efrat Sharabi </fullName>
    <phone>0501111111</phone>
    <email>admin@example.com</email>
    <password>D4567</password>
    <isActive>true</isActive>
    <role>Boss</role>
    <distance>Aerial</distance>
    <address>Harounoff  street 2, Jerusalem, Israel</address>
    <longitude>35.218994</longitude>
    <latitude>31.796294</latitude>
  </Volunteer>
</ArrayOfVolunteer>